[
  {
    "id": 1,
    "value": "Adana",
    "label": "Adana",
    "latitude": "37.0000",
    "longitude": "35.3213",
    "population": 2183167,
    "region": "Akdeniz"
  },
  {
    "id": 2,
    "value": "Adıyaman",
    "label": "Adıyaman",
    "latitude": "37.7648",
    "longitude": "38.2786",
    "population": 602774,
    "region": "Güneydoğu Anadolu"
  },
  {
    "id": 3,
    "value": "Afyonkarahisar",
    "label": "Afyonkarahisar",
    "latitude": "38.7507",
    "longitude": "30.5567",
    "population": 709015,
    "region": "Ege"
  },
  {
    "id": 4,
    "value": "Ağrı",
    "label": "Ağrı",
    "latitude": "39.7191",
    "longitude": "43.0503",
    "population": 547210,
    "region": "Doğu Anadolu"
  },
  {
    "id": 5,
    "value": "Amasya",
    "label": "Amasya",
    "latitude": "40.6499",
    "longitude": "35.8353",
    "population": 322167,
    "region": "Karadeniz"
  },
  {
    "id": 6,
    "value": "Ankara",
    "label": "Ankara",
    "latitude": "39.9208",
    "longitude": "32.8541",
    "population": 5270575,
    "region": "İç Anadolu"
  },
  {
    "id": 7,
    "value": "Antalya",
    "label": "Antalya",
    "latitude": "36.8841",
    "longitude": "30.7056",
    "population": 2288456,
    "region": "Akdeniz"
  },
  {
    "id": 8,
    "value": "Artvin",
    "label": "Artvin",
    "latitude": "41.1828",
    "longitude": "41.8183",
    "population": 168370,
    "region": "Karadeniz"
  },
  {
    "id": 9,
    "value": "Aydın",
    "label": "Aydın",
    "latitude": "37.8560",
    "longitude": "27.8416",
    "population": 1053506,
    "region": "Ege"
  },
  {
    "id": 10,
    "value": "Balıkesir",
    "label": "Balıkesir",
    "latitude": "39.6484",
    "longitude": "27.8826",
    "population": 1186688,
    "region": "Ege"
  },
  {
    "id": 11,
    "value": "Bilecik",
    "label": "Bilecik",
    "latitude": "40.0567",
    "longitude": "30.0665",
    "population": 212361,
    "region": "Marmara"
  },
  {
    "id": 12,
    "value": "Bingöl",
    "label": "Bingöl",
    "latitude": "39.0626",
    "longitude": "40.7696",
    "population": 267184,
    "region": "Doğu Anadolu"
  },
  {
    "id": 13,
    "value": "Bitlis",
    "label": "Bitlis",
    "latitude": "38.3938",
    "longitude": "42.1232",
    "population": 267184,
    "region": "Doğu Anadolu"
  },
  {
    "id": 14,
    "value": "Bolu",
    "label": "Bolu",
    "latitude": "40.5760",
    "longitude": "31.5788",
    "population": 291095,
    "region": "Karadeniz"
  },
  {
    "id": 15,
    "value": "Burdur",
    "label": "Burdur",
    "latitude": "37.4613",
    "longitude": "30.0665",
    "population": 258339,
    "region": "Akdeniz"
  },
  {
    "id": 16,
    "value": "Bursa",
    "label": "Bursa",
    "latitude": "40.2669",
    "longitude": "29.0634",
    "population": 2842547,
    "region": "Marmara"
  },
  {
    "id": 17,
    "value": "Çanakkale",
    "label": "Çanakkale",
    "latitude": "40.1553",
    "longitude": "26.4142",
    "population": 513341,
    "region": "Marmara"
  },
  {
    "id": 18,
    "value": "Çankırı",
    "label": "Çankırı",
    "latitude": "40.6013",
    "longitude": "33.6134",
    "population": 180945,
    "region": "İç Anadolu"
  },
  {
    "id": 19,
    "value": "Çorum",
    "label": "Çorum",
    "latitude": "40.5506",
    "longitude": "34.9556",
    "population": 525180,
    "region": "Karadeniz"
  },
  {
    "id": 20,
    "value": "Denizli",
    "label": "Denizli",
    "latitude": "37.7765",
    "longitude": "29.0864",
    "population": 993442,
    "region": "Ege"
  },
  {
    "id": 21,
    "value": "Diyarbakır",
    "label": "Diyarbakır",
    "latitude": "37.9144",
    "longitude": "40.2306",
    "population": 1654196,
    "region": "Güneydoğu Anadolu"
  },
  {
    "id": 22,
    "value": "Edirne",
    "label": "Edirne",
    "latitude": "41.6818",
    "longitude": "26.5623",
    "population": 402537,
    "region": "Marmara"
  },
  {
    "id": 23,
    "value": "Elâzığ",
    "label": "Elâzığ",
    "latitude": "38.6810",
    "longitude": "39.2264",
    "population": 574304,
    "region": "Doğu Anadolu"
  },
  {
    "id": 24,
    "value": "Erzincan",
    "label": "Erzincan",
    "latitude": "39.7500",
    "longitude": "39.5000",
    "population": 222918,
    "region": "Doğu Anadolu"
  },
  {
    "id": 25,
    "value": "Erzurum",
    "label": "Erzurum",
    "latitude": "39.9000",
    "longitude": "41.2700",
    "population": 762321,
    "region": "Doğu Anadolu"
  },
  {
    "id": 26,
    "value": "Eskişehir",
    "label": "Eskişehir",
    "latitude": "39.7767",
    "longitude": "30.5206",
    "population": 826716,
    "region": "İç Anadolu"
  },
  {
    "id": 27,
    "value": "Gaziantep",
    "label": "Gaziantep",
    "latitude": "37.0662",
    "longitude": "37.3833",
    "population": 1931836,
    "region": "Güneydoğu Anadolu"
  },
  {
    "id": 28,
    "value": "Giresun",
    "label": "Giresun",
    "latitude": "40.9128",
    "longitude": "38.3895",
    "population": 426686,
    "region": "Karadeniz"
  },
  {
    "id": 29,
    "value": "Gümüşhane",
    "label": "Gümüşhane",
    "latitude": "40.4386",
    "longitude": "39.5086",
    "population": 151449,
    "region": "Karadeniz"
  },
  {
    "id": 30,
    "value": "Hakkâri",
    "label": "Hakkâri",
    "latitude": "37.5833",
    "longitude": "43.7333",
    "population": 278775,
    "region": "Doğu Anadolu"
  },
  {
    "id": 31,
    "value": "Hatay",
    "label": "Hatay",
    "latitude": "36.4018",
    "longitude": "36.3498",
    "population": 1533507,
    "region": "Akdeniz"
  },
  {
    "id": 32,
    "value": "Isparta",
    "label": "Isparta",
    "latitude": "37.7648",
    "longitude": "30.5566",
    "population": 421766,
    "region": "Akdeniz"
  },
  {
    "id": 33,
    "value": "Mersin",
    "label": "Mersin",
    "latitude": "36.8000",
    "longitude": "34.6333",
    "population": 1745221,
    "region": "Akdeniz"
  },
  {
    "id": 34,
    "value": "Istanbul",
    "label": "Istanbul",
    "latitude": "41.0053",
    "longitude": "28.9770",
    "population": 14657434,
    "region": "Marmara"
  },
  {
    "id": 35,
    "value": "Izmir",
    "label": "Izmir",
    "latitude": "38.4189",
    "longitude": "27.1287",
    "population": 4168415,
    "region": "Ege"
  },
  {
    "id": 36,
    "value": "Kars",
    "label": "Kars",
    "latitude": "40.6167",
    "longitude": "43.1000",
    "population": 292660,
    "region": "Doğu Anadolu"
  },
  {
    "id": 37,
    "value": "Kastamonu",
    "label": "Kastamonu",
    "latitude": "41.3887",
    "longitude": "33.7827",
    "population": 372633,
    "region": "Karadeniz"
  },
  {
    "id": 38,
    "value": "Kayseri",
    "label": "Kayseri",
    "latitude": "38.7312",
    "longitude": "35.4787",
    "population": 1341056,
    "region": "İç Anadolu"
  },
  {
    "id": 39,
    "value": "Kırklareli",
    "label": "Kırklareli",
    "latitude": "41.7333",
    "longitude": "27.2167",
    "population": 346973,
    "region": "Marmara"
  },
  {
    "id": 40,
    "value": "Kırşehir",
    "label": "Kırşehir",
    "latitude": "39.1425",
    "longitude": "34.1709",
    "population": 225562,
    "region": "İç Anadolu"
  },
  {
    "id": 41,
    "value": "Kocaeli",
    "label": "Kocaeli",
    "latitude": "40.8533",
    "longitude": "29.8815",
    "population": 1780055,
    "region": "Marmara"
  },
  {
    "id": 42,
    "value": "Konya",
    "label": "Konya",
    "latitude": "37.8667",
    "longitude": "32.4833",
    "population": 2130544,
    "region": "İç Anadolu"
  },
  {
    "id": 43,
    "value": "Kütahya",
    "label": "Kütahya",
    "latitude": "39.4167",
    "longitude": "29.9833",
    "population": 571463,
    "region": "Ege"
  },
  {
    "id": 44,
    "value": "Malatya",
    "label": "Malatya",
    "latitude": "38.3552",
    "longitude": "38.3095",
    "population": 772904,
    "region": "Doğu Anadolu"
  },
  {
    "id": 45,
    "value": "Manisa",
    "label": "Manisa",
    "latitude": "38.6191",
    "longitude": "27.4289",
    "population": 1380366,
    "region": "Ege"
  },
  {
    "id": 46,
    "value": "Kahramanmaraş",
    "label": "Kahramanmaraş",
    "latitude": "37.5858",
    "longitude": "36.9371",
    "population": 1096610,
    "region": "Akdeniz"
  },
  {
    "id": 47,
    "value": "Mardin",
    "label": "Mardin",
    "latitude": "37.3212",
    "longitude": "40.7245",
    "population": 796591,
    "region": "Güneydoğu Anadolu"
  },
  {
    "id": 48,
    "value": "Muğla",
    "label": "Muğla",
    "latitude": "37.2153",
    "longitude": "28.3636",
    "population": 908877,
    "region": "Ege"
  },
  {
    "id": 49,
    "value": "Muş",
    "label": "Muş",
    "latitude": "38.9462",
    "longitude": "41.7539",
    "population": 408728,
    "region": "Doğu Anadolu"
  },
  {
    "id": 50,
    "value": "Nevşehir",
    "label": "Nevşehir",
    "latitude": "38.6939",
    "longitude": "34.6857",
    "population": 286767,
    "region": "İç Anadolu"
  },
  {
    "id": 51,
    "value": "Niğde",
    "label": "Niğde",
    "latitude": "37.9667",
    "longitude": "34.6833",
    "population": 346114,
    "region": "İç Anadolu"
  },
  {
    "id": 52,
    "value": "Ordu",
    "label": "Ordu",
    "latitude": "40.9839",
    "longitude": "37.8764",
    "population": 728949,
    "region": "Karadeniz"
  },
  {
    "id": 53,
    "value": "Rize",
    "label": "Rize",
    "latitude": "41.0201",
    "longitude": "40.5234",
    "population": 328979,
    "region": "Karadeniz"
  },
  {
    "id": 54,
    "value": "Sakarya",
    "label": "Sakarya",
    "latitude": "40.6940",
    "longitude": "30.4358",
    "population": 953181,
    "region": "Marmara"
  },
  {
    "id": 55,
    "value": "Samsun",
    "label": "Samsun",
    "latitude": "41.2928",
    "longitude": "36.3313",
    "population": 1279884,
    "region": "Karadeniz"
  },
  {
    "id": 56,
    "value": "Siirt",
    "label": "Siirt",
    "latitude": "37.9333",
    "longitude": "41.9500",
    "population": 320351,
    "region": "Güneydoğu Anadolu"
  },
  {
    "id": 57,
    "value": "Sinop",
    "label": "Sinop",
    "latitude": "42.0231",
    "longitude": "35.1531",
    "population": 204133,
    "region": "Karadeniz"
  },
  {
    "id": 58,
    "value": "Sivas",
    "label": "Sivas",
    "latitude": "39.7477",
    "longitude": "37.0179",
    "population": 618617,
    "region": "İç Anadolu"
  },
  {
    "id": 59,
    "value": "Tekirdağ",
    "label": "Tekirdağ",
    "latitude": "40.9833",
    "longitude": "27.5167",
    "population": 937910,
    "region": "Marmara"
  },
  {
    "id": 60,
    "value": "Tokat",
    "label": "Tokat",
    "latitude": "40.3167",
    "longitude": "36.5500",
    "population": 593990,
    "region": "Karadeniz"
  },
  {
    "id": 61,
    "value": "Trabzon",
    "label": "Trabzon",
    "latitude": "41.0015",
    "longitude": "39.7178",
    "population": 768417,
    "region": "Karadeniz"
  },
  {
    "id": 62,
    "value": "Tunceli",
    "label": "Tunceli",
    "latitude": "39.3074",
    "longitude": "39.4388",
    "population": 86076,
    "region": "Doğu Anadolu"
  },
  {
    "id": 63,
    "value": "Şanlıurfa",
    "label": "Şanlıurfa",
    "latitude": "37.1591",
    "longitude": "38.7969",
    "population": 1892320,
    "region": "Güneydoğu Anadolu"
  },
  {
    "id": 64,
    "value": "Uşak",
    "label": "Uşak",
    "latitude": "38.6823",
    "longitude": "29.4082",
    "population": 353048,
    "region": "Ege"
  },
  {
    "id": 65,
    "value": "Van",
    "label": "Van",
    "latitude": "38.4891",
    "longitude": "43.4089",
    "population": 1096397,
    "region": "Doğu Anadolu"
  },
  {
    "id": 66,
    "value": "Yozgat",
    "label": "Yozgat",
    "latitude": "39.8181",
    "longitude": "34.8147",
    "population": 419440,
    "region": "İç Anadolu"
  },
  {
    "id": 67,
    "value": "Zonguldak",
    "label": "Zonguldak",
    "latitude": "41.4564",
    "longitude": "31.7987",
    "population": 595907,
    "region": "Karadeniz"
  },
  {
    "id": 68,
    "value": "Aksaray",
    "label": "Aksaray",
    "latitude": "38.3687",
    "longitude": "34.0370",
    "population": 386514,
    "region": "İç Anadolu"
  },
  {
    "id": 69,
    "value": "Bayburt",
    "label": "Bayburt",
    "latitude": "40.2552",
    "longitude": "40.2249",
    "population": 78550,
    "region": "Karadeniz"
  },
  {
    "id": 70,
    "value": "Karaman",
    "label": "Karaman",
    "latitude": "37.1759",
    "longitude": "33.2287",
    "population": 242196,
    "region": "İç Anadolu"
  },
  {
    "id": 71,
    "value": "Kırıkkale",
    "label": "Kırıkkale",
    "latitude": "39.8468",
    "longitude": "33.5153",
    "population": 270271,
    "region": "İç Anadolu"
  },
  {
    "id": 72,
    "value": "Batman",
    "label": "Batman",
    "latitude": "37.8812",
    "longitude": "41.1351",
    "population": 566633,
    "region": "Güneydoğu Anadolu"
  },
  {
    "id": 73,
    "value": "Şırnak",
    "label": "Şırnak",
    "latitude": "37.4187",
    "longitude": "42.4918",
    "population": 490184,
    "region": "Güneydoğu Anadolu"
  },
  {
    "id": 74,
    "value": "Bartın",
    "label": "Bartın",
    "latitude": "41.5811",
    "longitude": "32.4610",
    "population": 190708,
    "region": "Karadeniz"
  },
  {
    "id": 75,
    "value": "Ardahan",
    "label": "Ardahan",
    "latitude": "41.1105",
    "longitude": "42.7022",
    "population": 99265,
    "region": "Doğu Anadolu"
  },
  {
    "id": 76,
    "value": "Iğdır",
    "label": "Iğdır",
    "latitude": "39.8880",
    "longitude": "44.0048",
    "population": 192435,
    "region": "Doğu Anadolu"
  },
  {
    "id": 77,
    "value": "Yalova",
    "label": "Yalova",
    "latitude": "40.6500",
    "longitude": "29.2667",
    "population": 233009,
    "region": "Marmara"
  },
  {
    "id": 78,
    "value": "Karabük",
    "label": "Karabük",
    "latitude": "41.2061",
    "longitude": "32.6204",
    "population": 236978,
    "region": "Karadeniz"
  },
  {
    "id": 79,
    "value": "Kilis",
    "label": "Kilis",
    "latitude": "36.7184",
    "longitude": "37.1212",
    "population": 130655,
    "region": "Güneydoğu Anadolu"
  },
  {
    "id": 80,
    "value": "Osmaniye",
    "label": "Osmaniye",
    "latitude": "37.2130",
    "longitude": "36.1763",
    "population": 512873,
    "region": "Akdeniz"
  },
  {
    "id": 81,
    "value": "Düzce",
    "label": "Düzce",
    "latitude": "40.8438",
    "longitude": "31.1565",
    "population": 360388,
    "region": "Karadeniz"
  }
]